{ 
   "data": [
    {
      "id": 1,
      "name": "Hay Equipo! Futbol 5",
      "location": "Zorrilla León 550",
      "description": "Una cancha de futbol 5 de cesped sintetico",
      "phoneNumber": "3624665589",
      "canchaNumber": "5",
      "image":"http:\/\/lorempixel.com\/500\/960\/nature\/?59331",
      "price": "200",
      "latitude": -27.445724, 
      "longitude": -58.969939
    },
    {
      "id": 2,
      "name": "Off Side Futbol 5",
      "location": "Julio Argentino Roca 630",
      "description": "Una cancha de futbol 5 de cesped sintetico",
      "phoneNumber": "3624876701",
      "canchaNumber": "5",
      "image":"http:\/\/lorempixel.com\/500\/960\/nature\/?59331",
      "price": "300",
      "latitude": -27.446644, 
      "longitude": -58.992759
    },
    {
      "name": "El Quincho Futbol 5",
      "location": "Sta María de Oro 1031",
      "description": "Una cancha de futbol 5 de cesped sintetico",
      "phoneNumber": "3624717330",
      "canchaNumber": "5",
      "image":"http:\/\/lorempixel.com\/500\/960\/nature\/?59331",
      "price": ["200"],
      "latitude": -27.458163,
      "longitude": -58.996157    
    },
    {
      "name": "El Gigante 5 Futbol",
      "location": "Av. 9 de Julio 1654",
      "description": "Una cancha de futbol 5 de cesped sintetico",
      "phoneNumber": "3624406661",
      "canchaNumber": "5",
      "image":"http:\/\/lorempixel.com\/500\/960\/nature\/?59331",
      "price": ["300"],
      "latitude": -27.464461, 
      "longitude": -58.971999
    },
    {
      "id": 3,
      "name": "El triángulo fútbol 5",
      "location": "Av. 25 de Mayo 2250",
      "description": "Dos cancha de futbol 5 de cesped sintetico",
      "phoneNumber": "3624766323",
      "canchaNumber": "5",
      "image":"http:\/\/lorempixel.com\/500\/960\/nature\/?59331",
      "price": ["200"],
      "latitude": -27.433989, 
      "longitude": -59.006743
    },
    {
      "id": 4,
      "name": "Matchpoint Fútbol 5",
      "location": "Av. 9 de Julio 2350",
      "description": "Tres canchas de futbol 5 de cesped sintetico",
      "phoneNumber": "3624544798",
      "canchaNumber": "5",
      "image":"http:\/\/lorempixel.com\/500\/960\/nature\/?59331",
      "price": ["200"],
      "latitude": -27.470240,
      "longitude": -58.965648   
    },
    {
      "id": 5,
      "name": "El Mundial Fútbol 5",
      "location": "Av 25 de Mayo 2345",
      "description": "Una cancha de futbol 5 de cesped sintetico",
      "phoneNumber": "3624519579",
      "canchaNumber": "5",
      "image":"http:\/\/lorempixel.com\/500\/960\/nature\/?59331",
      "price": ["200"],
      "latitude": -27.432828, 
      "longitude": -59.008352  
    },
    {
      "id": 6,
      "name": "Futbol 5 Tercer Tiempo",
      "location": "Av. 25 de Mayo 1890",
      "description": "Una cancha de futbol 5 de cesped sintetico",
      "phoneNumber": "3624221345",
      "canchaNumber": "5",
      "image":"http:\/\/lorempixel.com\/500\/960\/nature\/?59331",
      "price": ["200"],
      "latitude": -27.435958, 
      "longitude": -59.003457
    },
    {
      "id": 7,
      "name": "Premium",
      "location": "Avenida Alvear 2675",
      "description": "Una cancha de futbol 5 de cesped sintetico",
      "phoneNumber": "3624408080",
      "canchaNumber": "5",
      "image":"http:\/\/lorempixel.com\/500\/960\/nature\/?59331",
      "price": ["200"],
      "latitude": -27.436813, 
      "longitude": -59.017599  
    },
    {
      "id": 8,
      "name": "Cancha divina",
      "location": "Avenida Sarmiento 2610",
      "description": "Dos canchas de futbol 5 de cesped sintetico",
      "phoneNumber": "3624337913",
      "canchaNumber": "5",
      "image":"http:\/\/lorempixel.com\/500\/960\/nature\/?59331",
      "price": ["200"],
      "latitude": -27.432669,  
      "longitude": -58.965644
    },
    {
      "id": 9,
      "name": "Cancha Seven",
      "location": "Ruta nacional 16 km..",
      "description": "Una cancha de futbol 7 de cesped sintetico. Ubicada yendo para el hiper, 100 mts antes, al lado de SIFER GAS S.A.",
      "phoneNumber": "3624160843",
      "canchaNumber": "7",
      "image":"http:\/\/lorempixel.com\/500\/960\/nature\/?59331",
      "price": ["200"],
      "latitude": -27.415891,   
      "longitude": -58.965810
    },
    {
      "id": 9,
      "name": "La Ultima Canchita",
      "location": "Avenida Sarmiento 3000",
      "description": "Tres cancha de futbol 5 de cesped sintetico. Servicios adicionales: Bar / Restaurante, Torneos, Escuelita de Fútbol, Cumpleaños, Parrilla, Estacionamiento",
      "phoneNumber": "03624706649 ",
      "canchaNumber": "5",
      "image":"http:\/\/lorempixel.com\/500\/960\/nature\/?59331",
      "price": ["200"], 
      "latitude": -27.427989, 
      "longitude": -58.960539
    }
  ]  
}  
